{
    "venues": [
        {
            "geo": [
                "618 Frenchmen Street, New Orleans, LA 70116, USA", 
                [
                    29.9640087, 
                    -90.0578054
                ]
            ], 
            "links": [
                {
                    "href": "http://www.dbabars.com/dbano/", 
                    "label": "d.b.a. New Orleans website"
                }, 
                {
                    "href": "http://dbabars.com/dbano/index.php?s=events", 
                    "label": "d.b.a. music calendar"
                }
            ], 
            "locality": "New Orleans", 
            "mail": "klo@dbabars.com", 
            "name": "d.b.a.", 
            "phone": "(504) 942-3731", 
            "postal-code": "70116", 
            "region": "LA", 
            "street-address": "618 Frenchman Street"
        }, 
        {
            "geo": [
                "2828 Canal Street, New Orleans, LA 70119, USA", 
                [
                    29.9668143, 
                    -90.0895672
                ]
            ], 
            "links": [
                {
                    "href": "http://www.chickiewahwah.com", 
                    "label": "Chickie Wah Wah website"
                }
            ], 
            "locality": "New Orleans", 
            "name": "Chickie Wah Wah", 
            "phone": "(504) 304-4714", 
            "postal-code": "70119", 
            "region": "LA", 
            "street-address": "2828 Canal Street"
        }, 
        {
            "geo": [
                "623 Frenchmen Street, New Orleans, LA 70116, USA", 
                [
                    29.9641005, 
                    -90.0577182
                ]
            ], 
            "locality": "New Orleans", 
            "name": "Spotted Cat Music Club", 
            "postal-code": "70116", 
            "region": "LA", 
            "street-address": "623 Frenchman Street"
        }, 
        {
            "geo": [
                "3612 Hessmer Avenue, Metairie, LA 70002, USA", 
                [
                    30.0074445, 
                    -90.1634685
                ]
            ], 
            "locality": "Metairie", 
            "name": "The Cypress", 
            "phone": "(504) 896-4442", 
            "postal-code": "70002", 
            "region": "LA", 
            "street-address": "3612 Hessmer Ave."
        }, 
        {
            "geo": [
                "610 Bourbon Street, New Orleans, LA 70130, USA", 
                [
                    29.958062, 
                    -90.066116
                ]
            ], 
            "locality": "New Orleans", 
            "name": "Tropical Isle Bayou Club", 
            "region": "LA", 
            "street-address": "610 Bourbon St."
        }, 
        {
            "geo": [
                "2828 Canal Street, New Orleans, LA 70119, USA", 
                [
                    29.9668143, 
                    -90.0895672
                ]
            ], 
            "links": [
                {
                    "href": "http://www.chickiewahwah.com", 
                    "label": "Chickie Wah Wah website"
                }
            ], 
            "locality": "New Orleans", 
            "name": "Chickie Wah Wah", 
            "phone": "(504) 304-4714", 
            "postal-code": "70119", 
            "region": "LA", 
            "street-address": "2828 Canal Street"
        }, 
        {
            "geo": [
                "721 Bourbon Street, New Orleans, LA 70116, USA", 
                [
                    29.9591267, 
                    -90.0653068
                ]
            ], 
            "links": [
                {
                    "href": "http://www.tropicalisle.com", 
                    "label": "http://www.tropicalisle.com"
                }
            ], 
            "locality": "New Orleans", 
            "name": "Tropical Isle Bourbon", 
            "phone": "(504) 529-4109", 
            "postal-code": "70116", 
            "region": "LA", 
            "street-address": "721 Bourbon Street"
        }, 
        {
            "geo": [
                "225 Decatur Street, New Orleans, LA 70130, USA", 
                [
                    29.9531604, 
                    -90.0661661
                ]
            ], 
            "links": [
                {
                    "href": "http://www.hob.com/venues/clubvenues/neworleans", 
                    "label": "http://www.hob.com/venues/clubvenues/neworleans"
                }
            ], 
            "locality": "New Orleans", 
            "name": "House of Blues - Voodoo Garden", 
            "phone": "(504) 529-2583", 
            "postal-code": "70130", 
            "region": "LA", 
            "street-address": "225 Decatur Street"
        }, 
        {
            "geo": [
                "3449 River Road, Jefferson, LA 70121, USA", 
                [
                    29.9582935, 
                    -90.1609293
                ]
            ], 
            "links": [
                {
                    "href": "http://www.therivershacktavern.com", 
                    "label": "The Rivershack Tavern"
                }
            ], 
            "locality": "Jefferson", 
            "mail": "rivershack@nocoxmail.com", 
            "name": "Rivershack Tavern", 
            "postal-code": "70121", 
            "region": "LA", 
            "street-address": "3449 River Road"
        }, 
        {
            "geo": [
                "623 Frenchmen Street, New Orleans, LA 70116, USA", 
                [
                    29.9641005, 
                    -90.0577182
                ]
            ], 
            "locality": "New Orleans", 
            "name": "Spotted Cat Music Club", 
            "postal-code": "70116", 
            "region": "LA", 
            "street-address": "623 Frenchman Street"
        }, 
        {
            "geo": [
                "1432 Saint Charles Avenue, New Orleans, LA 70130, USA", 
                [
                    29.9391585, 
                    -90.0752232
                ]
            ], 
            "locality": "New Orleans", 
            "name": "The Irish House", 
            "region": "LA", 
            "street-address": "1432 St. Charles Avenue"
        }, 
        {
            "geo": [
                "4801 Magazine Street, New Orleans, LA 70115, USA", 
                [
                    29.9205149, 
                    -90.1062738
                ]
            ], 
            "links": [
                {
                    "href": "http://www.myspace.com/4801magazine", 
                    "label": "http://www.myspace.com/4801magazine"
                }
            ], 
            "locality": "New Orleans", 
            "name": "Le Bon Temps Roul\u00e9", 
            "phone": "(504) 897-3448", 
            "postal-code": "70115", 
            "region": "LA", 
            "street-address": "4801 Magazine Street"
        }, 
        {
            "geo": [
                "1755 Saint Charles Avenue, New Orleans, LA 70130, USA", 
                [
                    29.9365895, 
                    -90.0775998
                ]
            ], 
            "links": [
                {
                    "href": "http://www.hillstone.com", 
                    "label": "http://www.hillstone.com"
                }
            ], 
            "locality": "New Orleans", 
            "name": "Houston's Restaurant", 
            "phone": "(504) 524-1578", 
            "postal-code": "70130", 
            "region": "LA", 
            "street-address": "1755 Saint Charles Avenue"
        }, 
        {
            "geo": [
                "721 Bourbon Street, New Orleans, LA 70116, USA", 
                [
                    29.9591267, 
                    -90.0653068
                ]
            ], 
            "links": [
                {
                    "href": "http://www.tropicalisle.com", 
                    "label": "http://www.tropicalisle.com"
                }
            ], 
            "locality": "New Orleans", 
            "name": "Tropical Isle Bourbon", 
            "phone": "(504) 529-4109", 
            "postal-code": "70116", 
            "region": "LA", 
            "street-address": "721 Bourbon Street"
        }, 
        {
            "geo": [
                "532 Frenchmen Street, New Orleans, LA 70116, USA", 
                [
                    29.9632291, 
                    -90.0577415
                ]
            ], 
            "links": [
                {
                    "href": "http://www.bluenilelive.com", 
                    "label": "The Blue Nile website"
                }, 
                {
                    "href": "http://www.bluenilelive.com/calendar.htm", 
                    "label": "The Blue Nile music calendar"
                }
            ], 
            "locality": "New Orleans", 
            "mail": "info@bluenilemusic.com", 
            "name": "Blue Nile", 
            "phone": "(504) 948-2583", 
            "postal-code": "70116", 
            "region": "LA", 
            "street-address": "532 Frenchmen Street"
        }, 
        {
            "geo": [
                "2227 Saint Claude Avenue, New Orleans, LA 70117, USA", 
                [
                    29.9688884, 
                    -90.0559478
                ]
            ], 
            "locality": "New Orleans", 
            "name": "Siberia", 
            "region": "LA", 
            "street-address": "2227 St. Claude Ave"
        }, 
        {
            "geo": [
                "606 Frenchmen Street, New Orleans, LA 70116, USA", 
                [
                    29.9637003, 
                    -90.0577806
                ]
            ], 
            "locality": "New Orleans", 
            "name": "Caf\u00e9 Negril", 
            "phone": "(504) 944-4744", 
            "postal-code": "70116", 
            "region": "LA", 
            "street-address": "606 Frenchmen Street"
        }, 
        {
            "geo": [
                "626 Frenchmen Street, New Orleans, LA 70116, USA", 
                [
                    29.9641609, 
                    -90.0578676
                ]
            ], 
            "links": [
                {
                    "href": "http://www.snugjazz.com", 
                    "label": "http://www.snugjazz.com"
                }
            ], 
            "locality": "New Orleans", 
            "mail": "jason@snugjazz.com", 
            "name": "Snug Harbor", 
            "phone": "(504) 949-0696", 
            "postal-code": "70116", 
            "region": "LA", 
            "street-address": "626 Frenchmen Street"
        }, 
        {
            "geo": [
                "2372 Saint Claude Avenue, New Orleans, LA 70117, USA", 
                [
                    29.9687471, 
                    -90.0524549
                ]
            ], 
            "locality": "New Orleans", 
            "name": "Cafe Istanbul ", 
            "region": "LA", 
            "street-address": "2372 St. Claude"
        }, 
        {
            "geo": [
                "4401 Banks Street, New Orleans, LA 70119, USA", 
                [
                    29.9744629, 
                    -90.1065036
                ]
            ], 
            "links": [
                {
                    "href": "http://www.banksstreetbar.com/", 
                    "label": "Banks Street Bar website"
                }, 
                {
                    "href": "http://www.banksstreetbar.com/cal/month.php", 
                    "label": "Banks Street Bar music calendar"
                }
            ], 
            "locality": "New Orleans", 
            "mail": "banksmusic@bellsouth.net", 
            "name": "Banks Street Bar", 
            "phone": "(504) 486-0258", 
            "postal-code": "70119", 
            "region": "LA", 
            "street-address": "4401 Banks Street"
        }, 
        {
            "geo": [
                "1511 South Rendon Street, New Orleans, LA 70125, USA", 
                [
                    29.9549303, 
                    -90.1047306
                ]
            ], 
            "locality": "New Orleans", 
            "name": "Hangar 13", 
            "region": "LA", 
            "street-address": "1511 South Rendon"
        }, 
        {
            "geo": [
                "437 Esplanade Avenue, New Orleans, LA 70116, USA", 
                [
                    29.9618425, 
                    -90.0576285
                ]
            ], 
            "links": [
                {
                    "href": "http://mojitosnola.com", 
                    "label": "Mojitos website"
                }
            ], 
            "locality": "New Orleans", 
            "name": "Mojitos Rum Bar & Grill", 
            "postal-code": "70116", 
            "region": "LA", 
            "street-address": "437 Esplanade Avenue"
        }, 
        {
            "geo": [
                "536 Frenchmen Street, New Orleans, LA 70116, USA", 
                [
                    29.9632712, 
                    -90.0577468
                ]
            ], 
            "locality": "New Orleans", 
            "name": "Three Muses", 
            "region": "LA", 
            "street-address": "536 Frenchmen St."
        }, 
        {
            "geo": [
                "New Orleans Public Belt Railroad, New Orleans, LA 70118, USA", 
                [
                    29.9168885, 
                    -90.1271248
                ]
            ], 
            "links": [
                {
                    "href": "http://freretpubhouse.com", 
                    "label": "freretpubhouse.com"
                }
            ], 
            "locality": "New Orleans", 
            "name": "PubliQ House", 
            "region": "LA", 
            "street-address": "PubliQ House 4528 Freret St."
        }, 
        {
            "geo": [
                "1001 Esplanade Avenue, New Orleans, LA 70116, USA", 
                [
                    29.9654232, 
                    -90.0626099
                ]
            ], 
            "locality": "New Orleans", 
            "name": "Backroom at Buffa's", 
            "phone": "(504) 949-0038", 
            "postal-code": "70116", 
            "region": "LA", 
            "street-address": "1001 Esplanade Avenue"
        }, 
        {
            "geo": [
                "5110 Danneel Street, New Orleans, LA 70115, USA", 
                [
                    29.9299856, 
                    -90.1099823
                ]
            ], 
            "links": [
                {
                    "href": "http://www.neutralground.org", 
                    "label": "http://www.neutralground.org"
                }
            ], 
            "locality": "New Orleans", 
            "mail": "neutralgroundcoffee@hotmail.com", 
            "name": "Neutral Ground Coffeehouse", 
            "phone": "(504) 891-3381", 
            "postal-code": "70115", 
            "region": "LA", 
            "street-address": "5110 Danneel Street"
        }, 
        {
            "geo": [
                "545 Patterson Drive, New Orleans, LA 70114, USA", 
                [
                    29.955501, 
                    -90.050453
                ]
            ], 
            "links": [
                {
                    "href": "http://www.oldpointbar.com", 
                    "label": "http://www.oldpointbar.com"
                }
            ], 
            "locality": "New Orleans", 
            "mail": "webmaster@oldpointbar.com", 
            "name": "Old Point Bar", 
            "phone": "(504) 364-0950", 
            "postal-code": "70114", 
            "region": "LA", 
            "street-address": "545 Patterson Street Algiers Point"
        }, 
        {
            "geo": [
                "501 Esplanade Avenue, New Orleans, LA 70116, USA", 
                [
                    29.9622459, 
                    -90.0579716
                ]
            ], 
            "locality": "New Orleans", 
            "name": "Checkpoint Charlie", 
            "phone": "(504) 949-7012", 
            "postal-code": "70116", 
            "region": "LA", 
            "street-address": "501 Esplanade Avenue"
        }, 
        {
            "geo": [
                "437 Esplanade Avenue, New Orleans, LA 70116, USA", 
                [
                    29.9618425, 
                    -90.0576285
                ]
            ], 
            "links": [
                {
                    "href": "http://mojitosnola.com", 
                    "label": "Mojitos website"
                }
            ], 
            "locality": "New Orleans", 
            "name": "Mojitos Rum Bar & Grill", 
            "postal-code": "70116", 
            "region": "LA", 
            "street-address": "437 Esplanade Avenue"
        }, 
        {
            "geo": [
                "435 Bourbon Street, New Orleans, LA 70130, USA", 
                [
                    29.9569036, 
                    -90.0672551
                ]
            ], 
            "links": [
                {
                    "href": "http://www.tropicalisle.com", 
                    "label": "http://www.tropicalisle.com"
                }
            ], 
            "locality": "New Orleans", 
            "name": "Little Tropical Isle", 
            "phone": "(504) 529-4109", 
            "postal-code": "70116", 
            "region": "LA", 
            "street-address": "435 Bourbon Street"
        }, 
        {
            "geo": [
                "721 Bourbon Street, New Orleans, LA 70116, USA", 
                [
                    29.9591267, 
                    -90.0653068
                ]
            ], 
            "links": [
                {
                    "href": "http://www.tropicalisle.com", 
                    "label": "http://www.tropicalisle.com"
                }
            ], 
            "locality": "New Orleans", 
            "name": "Tropical Isle Bourbon", 
            "phone": "(504) 529-4109", 
            "postal-code": "70116", 
            "region": "LA", 
            "street-address": "721 Bourbon Street"
        }, 
        {
            "geo": [
                "542 South Jefferson Davis Parkway, New Orleans, LA 70119, USA", 
                [
                    29.9658767, 
                    -90.0974114
                ]
            ], 
            "links": [
                {
                    "href": "http://dmacsbarandgrill.com/", 
                    "label": "http://dmacsbarandgrill.com/"
                }
            ], 
            "locality": "New Orleans", 
            "mail": "info@dmacsbarandgrill.com", 
            "name": "Dmac's Bar & Grill", 
            "region": "LA", 
            "street-address": "542 S Jefferson Davis Parkway"
        }, 
        {
            "geo": [
                "609 Frenchmen Street, New Orleans, LA 70116, USA", 
                [
                    29.9639416, 
                    -90.057763
                ]
            ], 
            "locality": "New Orleans", 
            "name": "Apple Barrel", 
            "phone": "(504) 949-9399", 
            "postal-code": "70116", 
            "region": "LA", 
            "street-address": "609 Frenchmen Street"
        }, 
        {
            "geo": [
                "437 Esplanade Avenue, New Orleans, LA 70116, USA", 
                [
                    29.9618425, 
                    -90.0576285
                ]
            ], 
            "links": [
                {
                    "href": "http://mojitosnola.com", 
                    "label": "Mojitos website"
                }
            ], 
            "locality": "New Orleans", 
            "name": "Mojitos Rum Bar & Grill", 
            "postal-code": "70116", 
            "region": "LA", 
            "street-address": "437 Esplanade Avenue"
        }, 
        {
            "geo": [
                "921 Canal Street, New Orleans, LA 70112, USA", 
                [
                    29.954851, 
                    -90.071132
                ]
            ], 
            "links": [
                {
                    "href": "http://www.ritzcarlton.com", 
                    "label": "http://www.ritzcarlton.com"
                }
            ], 
            "locality": "New Orleans", 
            "name": "Ritz-Carlton Hotel - Davenport Lounge", 
            "phone": "(504) 524-1331", 
            "postal-code": "70112", 
            "region": "LA", 
            "street-address": "921 Canal Street"
        }, 
        {
            "geo": [
                "225 Decatur Street, New Orleans, LA 70130, USA", 
                [
                    29.9531604, 
                    -90.0661661
                ]
            ], 
            "links": [
                {
                    "href": "http://www.hob.com/venues/clubvenues/neworleans", 
                    "label": "http://www.hob.com/venues/clubvenues/neworleans"
                }
            ], 
            "locality": "New Orleans", 
            "name": "House of Blues - The Parish", 
            "phone": "(504) 529-2583", 
            "postal-code": "70130", 
            "region": "LA", 
            "street-address": "225 Decatur Street"
        }, 
        {
            "geo": [
                "300 Bourbon Street, New Orleans, LA 70130, USA", 
                [
                    29.955649, 
                    -90.067995
                ]
            ], 
            "locality": "New Orleans", 
            "name": "Irvin Mayfield's Jazz Playhouse", 
            "phone": "(504) 553-2270", 
            "postal-code": "70130", 
            "region": "LA", 
            "street-address": "300 Bourbon Street"
        }, 
        {
            "geo": [
                "532 Frenchmen Street, New Orleans, LA 70116, USA", 
                [
                    29.9632291, 
                    -90.0577415
                ]
            ], 
            "links": [
                {
                    "href": "http://www.bluenilelive.com", 
                    "label": "The Blue Nile website"
                }, 
                {
                    "href": "http://www.bluenilelive.com/calendar.htm", 
                    "label": "The Blue Nile music calendar"
                }
            ], 
            "locality": "New Orleans", 
            "mail": "info@bluenilemusic.com", 
            "name": "Blue Nile", 
            "phone": "(504) 948-2583", 
            "postal-code": "70116", 
            "region": "LA", 
            "street-address": "532 Frenchmen Street"
        }, 
        {
            "geo": [
                "733 Bourbon Street, New Orleans, LA 70116, USA", 
                [
                    29.9592829, 
                    -90.0651456
                ]
            ], 
            "locality": "New Orleans", 
            "name": "Fritzel's Jazz Pub", 
            "phone": "(504) 561-0432", 
            "postal-code": "70116", 
            "region": "LA", 
            "street-address": "733 Bourbon Street"
        }, 
        {
            "geo": [
                "1032 Saint Charles Avenue, New Orleans, LA 70130, USA", 
                [
                    29.9428686, 
                    -90.072702
                ]
            ], 
            "links": [
                {
                    "href": "http://www.myspace.com/thecirclebar", 
                    "label": "http://www.myspace.com/thecirclebar"
                }, 
                {
                    "href": "http://www.circlebarnola.com/", 
                    "label": "http://www.circlebarnola.com/"
                }
            ], 
            "locality": "New Orleans", 
            "name": "Circle Bar", 
            "phone": "(504) 588-2616", 
            "postal-code": "70130", 
            "region": "LA", 
            "street-address": "1032 Saint Charles Avenue"
        }, 
        {
            "geo": [
                "1407 Decatur Street, New Orleans, LA 70116, USA", 
                [
                    29.9625485, 
                    -90.0577453
                ]
            ], 
            "locality": "New Orleans", 
            "name": "Vaso", 
            "region": "LA", 
            "street-address": "1407 Decatur"
        }, 
        {
            "geo": [
                "635 Bourbon Street, New Orleans, LA 70116, USA", 
                [
                    29.9584974, 
                    -90.0658243
                ]
            ], 
            "locality": "New Orleans", 
            "name": "My Bar", 
            "phone": "(504) 679-0010", 
            "postal-code": "70130", 
            "region": "LA", 
            "street-address": "635 Bourbon St"
        }, 
        {
            "geo": [
                "1407 Decatur Street, New Orleans, LA 70116, USA", 
                [
                    29.9625485, 
                    -90.0577453
                ]
            ], 
            "locality": "New Orleans", 
            "name": "Vaso", 
            "region": "LA", 
            "street-address": "1407 Decatur"
        }, 
        {
            "geo": [
                "600 Bourbon Street, New Orleans, LA 70112, USA", 
                [
                    29.9578319, 
                    -90.0663256
                ]
            ], 
            "links": [
                {
                    "href": "http://www.tropicalisle.com", 
                    "label": "http://www.tropicalisle.com"
                }
            ], 
            "locality": "New Orleans", 
            "name": "Tropical Isle Original", 
            "phone": "(504) 529-1728", 
            "postal-code": "70130", 
            "region": "LA", 
            "street-address": "600 Bourbon Street"
        }, 
        {
            "geo": [
                "214 Royal Street, New Orleans, LA 70130, USA", 
                [
                    29.9543519, 
                    -90.067991
                ]
            ], 
            "links": [
                {
                    "href": "http://www.hotelmonteleone.com/dining-entertainment/index.cfm", 
                    "label": "Hotel Monteleone website"
                }
            ], 
            "locality": "New Orleans", 
            "mail": "reservations@hotelmonteleone.com", 
            "name": "Carousel Lounge - Hotel Monteleone", 
            "phone": "(800) 535-9595", 
            "postal-code": "70130", 
            "region": "LA", 
            "street-address": "214 Royal Street"
        }, 
        {
            "geo": [
                "300 Bourbon Street, New Orleans, LA 70130, USA", 
                [
                    29.955649, 
                    -90.067995
                ]
            ], 
            "locality": "New Orleans", 
            "name": "Irvin Mayfield's Jazz Playhouse", 
            "phone": "(504) 553-2270", 
            "postal-code": "70130", 
            "region": "LA", 
            "street-address": "300 Bourbon Street"
        }, 
        {
            "geo": [
                "618 Frenchmen Street, New Orleans, LA 70116, USA", 
                [
                    29.9640087, 
                    -90.0578054
                ]
            ], 
            "links": [
                {
                    "href": "http://www.dbabars.com/dbano/", 
                    "label": "d.b.a. New Orleans website"
                }, 
                {
                    "href": "http://dbabars.com/dbano/index.php?s=events", 
                    "label": "d.b.a. music calendar"
                }
            ], 
            "locality": "New Orleans", 
            "mail": "klo@dbabars.com", 
            "name": "d.b.a.", 
            "phone": "(504) 942-3731", 
            "postal-code": "70116", 
            "region": "LA", 
            "street-address": "618 Frenchman Street"
        }, 
        {
            "geo": [
                "727 Bourbon Street, New Orleans, LA 70116, USA", 
                [
                    29.959226, 
                    -90.06519
                ]
            ], 
            "links": [
                {
                    "href": "http://www.tropicalisle.com", 
                    "label": "http://www.tropicalisle.com"
                }
            ], 
            "locality": "New Orleans", 
            "name": "Funky Pirate", 
            "phone": "(504) 523-1960", 
            "postal-code": "70116", 
            "region": "LA", 
            "street-address": "727 Bourbon Street"
        }, 
        {
            "geo": [
                "727 Bourbon Street, New Orleans, LA 70116, USA", 
                [
                    29.959226, 
                    -90.06519
                ]
            ], 
            "links": [
                {
                    "href": "http://www.tropicalisle.com", 
                    "label": "http://www.tropicalisle.com"
                }
            ], 
            "locality": "New Orleans", 
            "name": "Funky Pirate", 
            "phone": "(504) 523-1960", 
            "postal-code": "70116", 
            "region": "LA", 
            "street-address": "727 Bourbon Street"
        }, 
        {
            "geo": [
                "435 Bourbon Street, New Orleans, LA 70130, USA", 
                [
                    29.9569036, 
                    -90.0672551
                ]
            ], 
            "links": [
                {
                    "href": "http://www.tropicalisle.com", 
                    "label": "http://www.tropicalisle.com"
                }
            ], 
            "locality": "New Orleans", 
            "name": "Little Tropical Isle", 
            "phone": "(504) 529-4109", 
            "postal-code": "70116", 
            "region": "LA", 
            "street-address": "435 Bourbon Street"
        }, 
        {
            "geo": [
                "600 Bourbon Street, New Orleans, LA 70112, USA", 
                [
                    29.9578319, 
                    -90.0663256
                ]
            ], 
            "links": [
                {
                    "href": "http://www.tropicalisle.com", 
                    "label": "http://www.tropicalisle.com"
                }
            ], 
            "locality": "New Orleans", 
            "name": "Tropical Isle Original", 
            "phone": "(504) 529-1728", 
            "postal-code": "70130", 
            "region": "LA", 
            "street-address": "600 Bourbon Street"
        }, 
        {
            "geo": [
                "1204 Decatur Street, New Orleans, LA 70116, USA", 
                [
                    29.9607933, 
                    -90.0590994
                ]
            ], 
            "links": [
                {
                    "href": "http://www.palmcourtjazz.com/", 
                    "label": "Home page"
                }
            ], 
            "locality": "New Orleans ", 
            "name": "Palm Court Jazz Caf\u00e9", 
            "region": "LA", 
            "street-address": "1204 Decatur"
        }, 
        {
            "geo": [
                "830 Conti Street, New Orleans, LA 70112, USA", 
                [
                    29.956794, 
                    -90.068589
                ]
            ], 
            "links": [
                {
                    "href": "http://www.thebombayclub.com", 
                    "label": "http://www.thebombayclub.com"
                }
            ], 
            "locality": "New Orleans", 
            "mail": "info@thebombayclub.com", 
            "name": "Bombay Club", 
            "phone": "(504) 586-0972", 
            "postal-code": "70112", 
            "region": "LA", 
            "street-address": "830 Conti Street"
        }, 
        {
            "geo": [
                "830 Conti Street, New Orleans, LA 70112, USA", 
                [
                    29.956794, 
                    -90.068589
                ]
            ], 
            "links": [
                {
                    "href": "http://www.thebombayclub.com", 
                    "label": "http://www.thebombayclub.com"
                }
            ], 
            "locality": "New Orleans", 
            "mail": "info@thebombayclub.com", 
            "name": "Bombay Club", 
            "phone": "(504) 586-0972", 
            "postal-code": "70112", 
            "region": "LA", 
            "street-address": "830 Conti Street"
        }, 
        {
            "geo": [
                "536 Frenchmen Street, New Orleans, LA 70116, USA", 
                [
                    29.9632712, 
                    -90.0577468
                ]
            ], 
            "locality": "New Orleans", 
            "name": "Three Muses", 
            "region": "LA", 
            "street-address": "536 Frenchmen St."
        }, 
        {
            "geo": [
                "8118 Oak Street, New Orleans, LA 70118, USA", 
                [
                    29.9475488, 
                    -90.1301395
                ]
            ], 
            "locality": "New Orleans ", 
            "name": "Oak Wine Bar", 
            "region": "LA", 
            "street-address": "8118 Oak Street"
        }, 
        {
            "geo": [
                "501 Esplanade Avenue, New Orleans, LA 70116, USA", 
                [
                    29.9622459, 
                    -90.0579716
                ]
            ], 
            "locality": "New Orleans", 
            "name": "Checkpoint Charlie", 
            "phone": "(504) 949-7012", 
            "postal-code": "70116", 
            "region": "LA", 
            "street-address": "501 Esplanade Avenue"
        }, 
        {
            "geo": [
                "1032 Saint Charles Avenue, New Orleans, LA 70130, USA", 
                [
                    29.9428686, 
                    -90.072702
                ]
            ], 
            "links": [
                {
                    "href": "http://www.myspace.com/thecirclebar", 
                    "label": "http://www.myspace.com/thecirclebar"
                }, 
                {
                    "href": "http://www.circlebarnola.com/", 
                    "label": "http://www.circlebarnola.com/"
                }
            ], 
            "locality": "New Orleans", 
            "name": "Circle Bar", 
            "phone": "(504) 588-2616", 
            "postal-code": "70130", 
            "region": "LA", 
            "street-address": "1032 Saint Charles Avenue"
        }, 
        {
            "geo": [
                "8316 Oak Street, New Orleans, LA 70118, USA", 
                [
                    29.948762, 
                    -90.132072
                ]
            ], 
            "links": [
                {
                    "href": "http://www.myspace.com/themapleleafbar", 
                    "label": "The Maple Leaf Bar on MySpace"
                }
            ], 
            "locality": "New Orleans", 
            "name": "Maple Leaf", 
            "phone": "(504) 866-9359", 
            "postal-code": "70118", 
            "region": "LA", 
            "street-address": "8316 Oak Street"
        }, 
        {
            "geo": [
                "2828 Canal Street, New Orleans, LA 70119, USA", 
                [
                    29.9668143, 
                    -90.0895672
                ]
            ], 
            "links": [
                {
                    "href": "http://www.chickiewahwah.com", 
                    "label": "Chickie Wah Wah website"
                }
            ], 
            "locality": "New Orleans", 
            "name": "Chickie Wah Wah", 
            "phone": "(504) 304-4714", 
            "postal-code": "70119", 
            "region": "LA", 
            "street-address": "2828 Canal Street"
        }, 
        {
            "geo": [
                "214 Royal Street, New Orleans, LA 70130, USA", 
                [
                    29.9543519, 
                    -90.067991
                ]
            ], 
            "links": [
                {
                    "href": "http://www.hotelmonteleone.com/dining-entertainment/index.cfm", 
                    "label": "Hotel Monteleone website"
                }
            ], 
            "locality": "New Orleans", 
            "mail": "reservations@hotelmonteleone.com", 
            "name": "Carousel Lounge - Hotel Monteleone", 
            "phone": "(800) 535-9595", 
            "postal-code": "70130", 
            "region": "LA", 
            "street-address": "214 Royal Street"
        }, 
        {
            "geo": [
                "2917 Harvard Avenue, Metairie, LA 70006, USA", 
                [
                    30.001911, 
                    -90.1893496
                ]
            ], 
            "locality": "Metairie", 
            "name": "Babylon Sports Bar", 
            "region": "LA", 
            "street-address": "2917 Harvard Ave."
        }, 
        {
            "geo": [
                "2917 Harvard Avenue, Metairie, LA 70006, USA", 
                [
                    30.001911, 
                    -90.1893496
                ]
            ], 
            "locality": "Metairie", 
            "name": "Babylon Sports Bar", 
            "region": "LA", 
            "street-address": "2917 Harvard Ave."
        }, 
        {
            "geo": [
                "501 Napoleon Avenue, New Orleans, LA 70115, USA", 
                [
                    29.9174145, 
                    -90.1008856
                ]
            ], 
            "links": [
                {
                    "href": "http://www.tipitinas.com", 
                    "label": "Tipitina's website"
                }, 
                {
                    "href": "http://www.tipitinas.com/calendar.asp", 
                    "label": "Tipitina's music calendar"
                }
            ], 
            "locality": "New Orleans", 
            "mail": "lindsay@tipitinas.com", 
            "name": "Tipitina's", 
            "phone": "(504) 895-8477", 
            "postal-code": "70115", 
            "region": "LA", 
            "street-address": "501 Napoleon Avenue"
        }, 
        {
            "geo": [
                "545 Patterson Drive, New Orleans, LA 70114, USA", 
                [
                    29.955501, 
                    -90.050453
                ]
            ], 
            "links": [
                {
                    "href": "http://www.oldpointbar.com", 
                    "label": "http://www.oldpointbar.com"
                }
            ], 
            "locality": "New Orleans", 
            "mail": "webmaster@oldpointbar.com", 
            "name": "Old Point Bar", 
            "phone": "(504) 364-0950", 
            "postal-code": "70114", 
            "region": "LA", 
            "street-address": "545 Patterson Street Algiers Point"
        }, 
        {
            "geo": [
                "214 Royal Street, New Orleans, LA 70130, USA", 
                [
                    29.9543519, 
                    -90.067991
                ]
            ], 
            "links": [
                {
                    "href": "http://www.hotelmonteleone.com/dining-entertainment/index.cfm", 
                    "label": "Hotel Monteleone website"
                }
            ], 
            "locality": "New Orleans", 
            "mail": "reservations@hotelmonteleone.com", 
            "name": "Carousel Lounge - Hotel Monteleone", 
            "phone": "(800) 535-9595", 
            "postal-code": "70130", 
            "region": "LA", 
            "street-address": "214 Royal Street"
        }, 
        {
            "geo": [
                "3811 Saint Charles Avenue, New Orleans, LA 70115, USA", 
                [
                    29.927379, 
                    -90.096146
                ]
            ], 
            "links": [
                {
                    "href": "http://www.thecolumns.com", 
                    "label": "http://www.thecolumns.com"
                }
            ], 
            "locality": "New Orleans", 
            "mail": "columnshtl@aol.com", 
            "name": "Columns Hotel", 
            "phone": "(800) 445-9308", 
            "region": "LA", 
            "street-address": "3811 Saint Charles Avenue"
        }, 
        {
            "links": [
                {
                    "href": "http://www.bluenilelive.com/main.html", 
                    "label": "Blue Nile website"
                }
            ], 
            "locality": "New Orleans", 
            "mail": "info@bluenilelive.com", 
            "name": "Blue Nile - Balcony Room", 
            "postal-code": "70116", 
            "region": "LA", 
            "street-address": "532 Frenchmen Street Up Stairs of Blue Nile"
        }, 
        {
            "geo": [
                "311 Bourbon Street, New Orleans, LA 70112, USA", 
                [
                    29.9556943, 
                    -90.0682875
                ]
            ], 
            "links": [
                {
                    "href": "http://www.cafebeignet.com", 
                    "label": "http://www.cafebeignet.com"
                }
            ], 
            "locality": "New Orleans", 
            "name": "Caf\u00e9 Beignet on Bourbon", 
            "phone": "(504) 525-2611", 
            "postal-code": "70130", 
            "region": "LA", 
            "street-address": "311 Bourbon Street"
        }, 
        {
            "geo": [
                "Freret, New Orleans, LA, USA", 
                [
                    29.9378725, 
                    -90.1062246
                ]
            ], 
            "locality": "New Orleans", 
            "name": "Other Bar", 
            "region": "LA", 
            "street-address": "Other Bar 5039 Freret"
        }, 
        {
            "geo": [
                "3016 South Carrollton Avenue, New Orleans, LA 70118, USA", 
                [
                    29.960865, 
                    -90.115774
                ]
            ], 
            "links": [
                {
                    "href": "http://www.rockandbowl.com", 
                    "label": "Mid-City Lanes Rock 'n' Bowl website"
                }, 
                {
                    "href": "http://www.rockandbowl.com/CalandarPAGE/calendar2.html", 
                    "label": "Mid-City Lanes Rock 'n' Bowl music calendar"
                }
            ], 
            "locality": "New Orleans", 
            "mail": "adele@rocknbowl.com", 
            "name": "Mid-City Lanes Rock & Bowl", 
            "phone": "(504) 861-1700 ", 
            "postal-code": "70118", 
            "region": "LA", 
            "street-address": "3016 S. Carrollton Avenue "
        }, 
        {
            "geo": [
                "610 Bourbon Street, New Orleans, LA 70130, USA", 
                [
                    29.958062, 
                    -90.066116
                ]
            ], 
            "locality": "New Orleans", 
            "name": "Tropical Isle Bayou Club", 
            "region": "LA", 
            "street-address": "610 Bourbon St."
        }, 
        {
            "geo": [
                "1104 Decatur Street, New Orleans, LA 70116, USA", 
                [
                    29.9599009, 
                    -90.0598873
                ]
            ], 
            "links": [
                {
                    "href": "http://margaritaville.com", 
                    "label": "http://margaritaville.com"
                }
            ], 
            "locality": "New Orleans", 
            "mail": "margcafe@bellsouth.net", 
            "name": "Margaritaville", 
            "phone": "(504) 592-2565", 
            "postal-code": "70116", 
            "region": "LA", 
            "street-address": "1104 Decatur Street"
        }, 
        {
            "geo": [
                "727 Bourbon Street, New Orleans, LA 70116, USA", 
                [
                    29.959226, 
                    -90.06519
                ]
            ], 
            "links": [
                {
                    "href": "http://www.tropicalisle.com", 
                    "label": "http://www.tropicalisle.com"
                }
            ], 
            "locality": "New Orleans", 
            "name": "Funky Pirate", 
            "phone": "(504) 523-1960", 
            "postal-code": "70116", 
            "region": "LA", 
            "street-address": "727 Bourbon Street"
        }, 
        {
            "geo": [
                "435 Huey P Long Avenue, Gretna, LA 70053, USA", 
                [
                    29.9152368, 
                    -90.0637456
                ]
            ], 
            "links": [
                {
                    "href": "http://gattusosdeli.com/menu/", 
                    "label": "http://gattusosdeli.com/menu/"
                }
            ], 
            "locality": "Gretna", 
            "name": "Gattuso's Bar and Grill", 
            "postal-code": "70058", 
            "region": "LA", 
            "street-address": "435 Huey Long Ave. "
        }, 
        {
            "geo": [
                "541 Bourbon Street, New Orleans, LA 70112, USA", 
                [
                    29.9577192, 
                    -90.066517
                ]
            ], 
            "locality": "New Orleans", 
            "name": "Four Points by Sheraton - Puccini Bar ", 
            "region": "LA", 
            "street-address": "541 Bourbon Street"
        }, 
        {
            "geo": [
                "600 Bourbon Street, New Orleans, LA 70112, USA", 
                [
                    29.9578319, 
                    -90.0663256
                ]
            ], 
            "links": [
                {
                    "href": "http://www.tropicalisle.com", 
                    "label": "http://www.tropicalisle.com"
                }
            ], 
            "locality": "New Orleans", 
            "name": "Tropical Isle Original", 
            "phone": "(504) 529-1728", 
            "postal-code": "70130", 
            "region": "LA", 
            "street-address": "600 Bourbon Street"
        }, 
        {
            "geo": [
                "901 South Peters Street, New Orleans, LA 70130, USA", 
                [
                    29.9428785, 
                    -90.0660439
                ]
            ], 
            "links": [
                {
                    "href": "http://thehowlinwolf.com", 
                    "label": "Howlin' Wolf website"
                }, 
                {
                    "href": "http://profile.myspace.com/index.cfm?fuseaction=user.viewProfile&friendID=15736668", 
                    "label": "Howlin' Wolf on MySpace"
                }
            ], 
            "locality": "New Orleans", 
            "name": "Howlin' Wolf - \"The Den\"", 
            "phone": "(504) 522-9653", 
            "postal-code": "70130", 
            "region": "LA", 
            "street-address": "901 S. Peters St"
        }, 
        {
            "geo": [
                "326 North Jefferson Davis Parkway, New Orleans, LA 70119, USA", 
                [
                    29.9721019, 
                    -90.0918369
                ]
            ], 
            "links": [
                {
                    "href": "http://bayoucoffeehouse.com/", 
                    "label": "http://bayoucoffeehouse.com/"
                }
            ], 
            "locality": "New Orleans", 
            "name": "Bayou Beer Garden", 
            "phone": "(504) 484-7390", 
            "postal-code": "70119", 
            "region": "LA", 
            "street-address": "326 N. Jefferson Davis Pkwy."
        }, 
        {
            "geo": [
                "2227 Saint Claude Avenue, New Orleans, LA 70117, USA", 
                [
                    29.9688884, 
                    -90.0559478
                ]
            ], 
            "locality": "New Orleans", 
            "name": "Siberia", 
            "region": "LA", 
            "street-address": "2227 St. Claude Ave"
        }, 
        {
            "geo": [
                "726 Saint Peter Street, New Orleans, LA 70116, USA", 
                [
                    29.9583033, 
                    -90.0652395
                ]
            ], 
            "links": [
                {
                    "href": "http://www.preservationhall.com", 
                    "label": "http://www.preservationhall.com"
                }
            ], 
            "locality": "New Orleans", 
            "mail": "contact@preservationhall.com", 
            "name": "Preservation Hall", 
            "phone": "(504) 522-2841", 
            "postal-code": "70116", 
            "region": "LA", 
            "street-address": "726 Saint Peters Street"
        }, 
        {
            "geo": [
                "521 East Boston Street, Covington, LA 70433, USA", 
                [
                    30.4756223, 
                    -90.0949654
                ]
            ], 
            "links": [
                {
                    "href": "http://www.myspace.com/green_room", 
                    "label": "The Green Room"
                }
            ], 
            "locality": "Covington", 
            "mail": "greenroomthe@bellsouth.net", 
            "name": "Green Room", 
            "phone": "(985) 892-2225", 
            "postal-code": "70433", 
            "region": "LA", 
            "street-address": "521 E. Boston Street"
        }, 
        {
            "geo": [
                "2240 Saint Claude Avenue, New Orleans, LA 70117, USA", 
                [
                    29.9685463, 
                    -90.0556742
                ]
            ], 
            "links": [
                {
                    "href": "http://www.marignytheatre.org", 
                    "label": "Marigny Theatre & AllWays Lounge website"
                }
            ], 
            "locality": "New Orleans", 
            "mail": "dennis@nofringe.org", 
            "name": "AllWays Lounge", 
            "region": "LA", 
            "street-address": "2240 St. Claude Ave."
        }, 
        {
            "geo": [
                "1329 Jackson Avenue, New Orleans, LA 70130, USA", 
                [
                    29.9315132, 
                    -90.0783156
                ]
            ], 
            "links": [
                {
                    "href": "http://www.trinitynola.com", 
                    "label": "http://www.trinitynola.com"
                }
            ], 
            "locality": "New Orleans", 
            "mail": "aprizgintas@trinitynola.com", 
            "name": "Trinity Episcopal Church", 
            "phone": "(504) 522-0276", 
            "postal-code": "70130", 
            "region": "LA", 
            "street-address": "1329 Jackson Avenue"
        }, 
        {
            "geo": [
                "5535 Tchoupitoulas Street, New Orleans, LA 70115, USA", 
                [
                    29.916536, 
                    -90.11806
                ]
            ], 
            "links": [
                {
                    "href": "http://www.dosjefescigarbar.com", 
                    "label": "Dos Jefes website"
                }
            ], 
            "locality": "New Orleans", 
            "name": "Dos Jefes", 
            "phone": "(504) 891-8500", 
            "postal-code": "70115", 
            "region": "LA", 
            "street-address": "5535 Tchoupitoulas Street"
        }, 
        {
            "geo": [
                "Collins Diboll Circle, New Orleans, LA 70119, USA", 
                [
                    29.9862736, 
                    -90.0931971
                ]
            ], 
            "links": [
                {
                    "href": "http://www.noma.org", 
                    "label": "http://www.noma.org"
                }
            ], 
            "locality": "New Orleans", 
            "name": "New Orleans Museum of Art", 
            "phone": "(504) 658-4100", 
            "postal-code": "70124", 
            "region": "LA", 
            "street-address": "1 Collins Diboll Circle, City Park"
        }, 
        {
            "geo": [
                "623 Frenchmen Street, New Orleans, LA 70116, USA", 
                [
                    29.9641005, 
                    -90.0577182
                ]
            ], 
            "locality": "New Orleans", 
            "name": "Spotted Cat Music Club", 
            "postal-code": "70116", 
            "region": "LA", 
            "street-address": "623 Frenchman Street"
        }, 
        {
            "geo": [
                "2240 Saint Claude Avenue, New Orleans, LA 70117, USA", 
                [
                    29.9685463, 
                    -90.0556742
                ]
            ], 
            "links": [
                {
                    "href": "http://www.marignytheatre.org", 
                    "label": "Marigny Theatre & AllWays Lounge website"
                }
            ], 
            "locality": "New Orleans", 
            "mail": "dennis@nofringe.org", 
            "name": "AllWays Lounge", 
            "region": "LA", 
            "street-address": "2240 St. Claude Ave."
        }, 
        {
            "geo": [
                "1407 Decatur Street, New Orleans, LA 70116, USA", 
                [
                    29.9625485, 
                    -90.0577453
                ]
            ], 
            "locality": "New Orleans", 
            "name": "Vaso", 
            "region": "LA", 
            "street-address": "1407 Decatur"
        }
    ]
}
